[{"id":"511d8a76e4b09b0f7ef8afe5","name":"Yokohama","address":"Plaza Boulevar","lat":9.856489012532679,"lng":-83.92421380227357,"country":"Costa Rica"},{"id":"525c151e11d2958169015a03","name":"Cocina La Vida","address":"Frente Al Colegio San Luis Gonzaga","lat":9.860997601446895,"lng":-83.92334034741947,"city":"Cartago","state":"Cartago","country":"Costa Rica"},{"id":"5851ee2c158b964b6141efe9","name":"Taller Gastronomico Irie","address":"50 metros sur de la Esquina sur oeste de la Corte de Cartago","lat":9.862271,"lng":-83.917756,"state":"Cartago","country":"Costa Rica"},{"id":"516b2dd7e4b0ee18ac52be93","name":"Pizzeria Villa Italia","lat":9.860086915817192,"lng":-83.9182134205347,"city":"Cartago","state":"Cartago","country":"Costa Rica"},{"id":"5935cafb340a584be5c5467a","name":"Subway","address":"Plaza Iztarú, 600 m oeste de Entrada Principal del TEC","lat":9.858532610733057,"lng":-83.91722967191171,"city":"Cartago","state":"Cartago","country":"Costa Rica"},{"id":"4f0a15a5e4b039f5aea713d1","name":"Il Palio","lat":9.865398566166714,"lng":-83.92506306210988,"city":"Cartago","state":"Cartago","country":"Costa Rica"},{"id":"4f6d449be4b0e3b3bcd4608e","name":"Soda La Rústica","address":"Cartago","lat":9.86074356507675,"lng":-83.91709674591904,"country":"Costa Rica"},{"id":"5054fc85e4b0f42fb702709b","name":"Kanalu","address":"Costado Sur de Plaza Yglesias","lat":9.8624988635957,"lng":-83.9235200982661,"city":"Cartago","state":"Cartago","country":"Costa Rica"},{"id":"4c4a5d6d5609c9b64e808a8f","name":"Pizza Hut","address":"frente a Mucap","lat":9.864978228144805,"lng":-83.92014624164068,"city":"Cartago","state":"Cartago","country":"Costa Rica"},{"id":"4e3656af922e1153a52db62c","name":"Subway","address":"Frente a las Ruinas","lat":9.86480639389824,"lng":-83.92014633911636,"city":"Cartago","state":"Cartago","country":"Costa Rica"},{"id":"57425b6c498e30313278f5e2","name":"McDonald's","address":"Costado de la Plaza Mayor de Cartago","lat":9.863872038056893,"lng":-83.92086629307708,"city":"Cartago","state":"Cartago","country":"Costa Rica"},{"id":"564e1c6b498e7b03a206b536","name":"RostiPollos Cartago","address":"Cartago","lat":9.864585058196377,"lng":-83.91868803359866,"country":"Costa Rica"},{"id":"52a118c111d2032a56b1e1ff","name":"Boutique Café","lat":9.861457644825585,"lng":-83.91587067813697,"city":"Cartago","state":"Cartago","country":"Costa Rica"},{"id":"51d23b49e4b0412a447613f4","name":"Bar Reflexiones","lat":9.858743412883697,"lng":-83.92722481131267,"country":"Costa Rica"},{"id":"52cf47df498e071f9283fb88","name":"La Parrilita Mexicana","address":"Diagonal alCalvario","lat":9.864146655675619,"lng":-83.91454911577756,"city":"Barrio Los Angeles","state":"Cartago","country":"Costa Rica"},{"id":"4fd416dce4b06383cc96129b","name":"Restaurante Malanga Fusión Caribe","address":"San Blas","lat":9.865438706484642,"lng":-83.91412389861945,"city":"Cartago","state":"Cartago","country":"Costa Rica"},{"id":"4d97d259b188721e0a561a37","name":"La Planchita Mexicana","address":"75 mts sur de la basílica","lat":9.863085423887668,"lng":-83.9143923001553,"city":"Cartago","state":"Cartago","country":"Costa Rica"},{"id":"4e614a2bd4c06542aa7265f1","name":"Otero's Pizza","address":"Del Calvario de la Basílica Nuestra Señora de los Ángeles 100 metros Norte","lat":9.864712729544783,"lng":-83.91427595189812,"city":"Los Angeles","state":"Cartago","country":"Costa Rica"},{"id":"53d94bce498ea9f619dca5c1","name":"Lomitos Grill","lat":9.853646272102043,"lng":-83.92967815147873,"country":"Costa Rica"},{"id":"4f21c736e4b0617641920dc9","name":"La canela","lat":9.861134626303807,"lng":-83.92156031987983,"country":"Costa Rica"}]